app:
  name: "AQI Dashboard"

locations:
  - name: "Ha Noi"
    lat: 21.0285
    lon: 105.8542
  - name: "Ho Chi Minh"
    lat: 10.8231
    lon: 106.6297
  - name: "Da Nang"
    lat: 16.0678
    lon: 108.2208
  - name: "Hai Phong"
    lat: 20.8449
    lon: 106.6881
  - name: "Can Tho"
    lat: 10.0452
    lon: 105.7469
  - name: "Hue"
    lat: 16.4637
    lon: 107.5909
  - name: "Nha Trang"
    lat: 12.2388
    lon: 109.1967
  - name: "Da Lat"
    lat: 11.9404
    lon: 108.4583
  - name: "Vung Tau"
    lat: 10.3460
    lon: 107.0843
  - name: "Quy Nhon"
    lat: 13.7833
    lon: 109.2167
  - name: "Vinh"
    lat: 18.6667
    lon: 105.6667
  - name: "Ha Long"
    lat: 20.9505
    lon: 107.0733

api:
  base_url: "https://air-quality-api.open-meteo.com/v1/air-quality"

mongo:
  db_name: "htpUser"
  raw_collection: "db_raw"
  processed_collection: "db_processed"
  prediction_collection: "db_predictions"

model:
  rf:
    path: "models/rf/rf_v1.pkl"
    version: "v1"
  lstm:
    path: "models/lstm/lstm_v1.h5"
    version: "v1"

artifacts:
  scaler_path: "artifacts/scaler.pkl"
  training_data_path: "artifacts/training_data_scaled.parquet"

inference:
  run_models:
    - rf
    - lstm